	Time	Time (s)	Distance [m]	Internal Battery [V]	External Voltage [V]	InlineAcc [g]	LateralAcc [g]	VerticalAcc [g]	RollRate [deg/s]	PitchRate [deg/s]	YawRate [deg/s]	RPM [rpm]	HDS_TPS_V [mV]	HDS_TPS [%]	Coolant [°C]	HDS_IAT [°C]	HDS_MAP [bar]	HDS_BATT [V]	Rr_Speed [km/h]	Throttle [deg]	HDS_INJ_Tms [#]	HDS_unk [#]	GPS_Speed [km/h]	GPS_Nsat [#]	GPS_LatAcc [g]	GPS_LonAcc [g]	GPS_Slope [deg]	GPS_Heading [deg]	GPS_Gyro [deg/s]	GPS_Altitude [m]	GPS_PosAccuracy [#]	GPS_SpdAccuracy [#]	GPS_Latitude [°]	GPS_Longitude [°]	GPS_Elevation [cm]	
Lap: 1	 01.25.156	0.000	0.00	4.176	11.416	-0.010	0.023	-1.009	3.459	-2.065	-4.160	0.000	0.000	0.000	0.000	0.000	0.000	0.000	0.000	0.000	0.000	0.000	0.000	17.000	0.000	0.000	-0.006	-0.011	-0.022	171.873	0.590	0.170	44.680534850117	10.022373838041	171.87	
		0.100	0.00	4.176	11.462	-0.014	0.039	-1.012	3.455	-2.037	-4.157	0.000	0.000	0.000	0.000	0.000	0.000	0.000	0.000	0.000	0.000	0.000	0.000	17.000	0.000	0.000	-0.006	-0.011	-0.022	171.873	0.590	0.170	44.680534835596	10.022373836045	171.87	
		0.200	0.00	4.176	11.509	-0.011	0.034	-1.000	3.469	-2.123	-4.142	0.000	0.000	0.000	0.000	0.000	0.000	0.000	0.000	0.000	0.000	0.000	0.000	17.000	0.000	0.000	-0.006	-0.011	-0.022	171.873	0.600	0.160	44.680534821360	10.022373834511	171.87	
		0.300	0.00	4.176	11.555	-0.001	0.041	-0.996	3.488	-2.142	-4.102	2453.900	1520.980	20.000	77.999	42.000	0.980	11.000	0.000	9.844	1.130	122.999	0.000	17.000	0.000	0.000	-0.006	-0.011	-0.022	171.873	0.610	0.140	44.680534808631	10.022373835420	171.87	
		0.400	0.00	4.176	11.602	-0.001	0.033	-1.005	3.515	-2.058	-4.173	2360.714	584.976	1.999	77.999	42.000	0.770	11.904	0.000	9.041	1.130	123.639	0.000	17.000	0.000	0.000	-0.006	-0.011	-0.022	171.873	0.610	0.140	44.680534799316	10.022373839590	171.87	
		0.500	0.00	4.176	11.648	0.004	0.021	-1.004	3.506	-2.082	-4.170	2251.583	598.172	2.240	77.999	42.000	0.774	12.100	0.000	6.086	1.130	114.679	0.000	17.000	0.000	0.000	-0.006	-0.011	-0.022	171.873	0.610	0.160	44.680534785679	10.022373844200	171.87	
		0.600	0.00	4.176	11.694	0.065	0.041	-1.009	3.471	-2.070	-4.192	1812.987	1832.981	26.999	77.999	42.000	0.980	11.896	0.000	12.273	1.199	99.998	0.000	17.000	0.000	0.000	-0.006	-0.011	-0.022	171.873	0.610	0.160	44.680534758266	10.022373848967	171.87	
		0.700	0.00	4.176	11.741	-0.035	0.023	-1.006	3.474	-2.111	-4.127	1671.551	1832.981	26.999	77.999	42.000	0.970	12.196	0.000	12.635	1.149	91.719	0.000	17.000	0.000	0.000	-0.006	-0.011	-0.022	171.873	0.620	0.150	44.680534725910	10.022373856925	171.87	
		0.800	0.00	4.176	11.787	0.006	0.041	-0.993	3.445	-2.152	-4.157	2125.264	1794.727	26.240	77.999	42.000	0.969	12.104	0.000	9.872	1.130	84.680	0.000	17.000	0.000	0.000	-0.006	-0.011	-0.022	171.873	0.620	0.150	44.680534704551	10.022373864924	171.87	
		0.900	0.00	4.176	11.833	0.085	0.046	-1.022	3.495	-2.109	-4.216	2271.877	584.976	1.999	77.999	42.000	0.610	12.496	0.000	6.117	1.130	69.000	0.000	17.000	0.000	0.000	-0.006	-0.011	-0.022	171.873	0.620	0.140	44.680534696731	10.022373864996	171.87	
		1.000	0.00	4.176	11.880	0.022	0.030	-1.012	3.524	-2.112	-4.204	1950.488	605.261	2.400	77.999	42.000	0.593	12.384	0.000	6.667	1.132	61.880	0.000	17.000	0.000	0.000	-0.006	-0.011	-0.022	171.873	0.620	0.140	44.680534688527	10.022373861965	171.87	
		1.100	0.00	4.176	11.942	0.042	0.041	-1.008	3.430	-2.108	-4.219	1573.188	1105.235	12.280	78.039	42.000	0.921	12.008	0.000	11.030	1.181	58.998	0.000	17.000	0.000	0.000	-0.006	-0.011	-0.022	171.873	0.620	0.150	44.680534677504	10.022373864715	171.87	
		1.200	0.00	4.176	12.005	-0.029	0.023	-1.002	3.463	-2.051	-4.131	2183.868	1442.997	18.999	78.999	42.000	0.970	12.600	0.000	9.484	1.289	58.998	0.000	17.000	0.000	0.000	-0.006	-0.011	-0.022	171.873	0.620	0.150	44.680534666632	10.022373867099	171.87	
		1.300	0.00	4.176	12.068	0.361	0.158	-1.016	3.501	-2.109	-4.227	2610.660	1599.734	22.240	78.999	42.000	0.941	12.296	0.000	11.239	1.384	58.998	0.000	17.000	0.000	0.000	-0.006	-0.011	-0.022	171.873	0.630	0.150	44.680534657397	10.022373854915	171.87	
		1.400	0.00	4.176	12.130	-0.073	0.042	-1.010	3.475	-2.074	-4.170	3388.246	678.050	3.919	78.999	42.000	0.709	12.316	0.000	6.423	1.495	58.998	0.000	17.000	0.000	0.000	-0.006	-0.011	-0.022	171.873	0.630	0.140	44.680534648660	10.022373837470	171.87	
		1.500	0.00	4.176	12.193	-0.043	0.044	-0.966	3.471	-2.082	-4.177	3158.801	1286.961	16.000	78.999	42.000	0.920	12.296	0.000	10.625	1.720	58.998	0.000	17.000	0.000	0.000	-0.006	-0.011	-0.022	171.873	0.630	0.150	44.680534642386	10.022373824401	171.87	
		1.600	0.00	4.176	12.255	0.111	0.084	-1.003	3.488	-2.105	-4.160	4572.538	1404.743	18.039	79.039	42.000	0.909	12.792	0.000	10.263	1.888	58.998	0.000	17.000	0.000	0.000	-0.006	-0.011	-0.022	171.873	0.640	0.150	44.680534628114	10.022373809735	171.87	
		1.700	0.00	4.176	12.318	0.141	0.025	-1.012	3.511	-2.102	-4.142	6199.566	1389.441	18.319	80.000	42.000	0.879	12.608	0.000	9.063	2.085	58.998	0.000	17.000	0.000	0.000	-0.006	-0.011	-0.022	171.873	0.640	0.150	44.680534593672	10.022373789365	171.87	
		1.800	0.00	4.176	12.380	0.038	0.034	-1.012	3.489	-2.107	-4.153	6913.993	584.976	1.999	80.000	42.000	0.390	12.800	0.000	4.199	2.260	58.998	0.000	17.000	0.000	0.000	-0.006	-0.011	-0.022	171.873	0.640	0.150	44.680534546266	10.022373783310	171.87	
		1.900	0.00	4.176	12.443	-0.031	-0.011	-1.031	3.494	-2.117	-4.142	6913.993	584.976	1.999	80.000	42.000	0.390	12.800	0.000	4.199	2.260	58.998	0.000	17.000	0.000	0.000	-0.006	-0.011	-0.022	171.873	0.640	0.140	44.680534503487	10.022373795357	171.87	
		2.000	0.00	4.176	12.506	0.025	0.016	-1.025	3.457	-2.099	-4.195	6913.993	584.976	1.999	80.000	42.000	0.390	12.800	0.000	4.199	2.260	58.998	0.000	17.000	0.000	0.000	-0.006	-0.011	-0.022	171.873	0.650	0.130	44.680534468817	10.022373810967	171.87	
		2.100	0.00	4.176	12.539	-0.145	0.077	-0.842	3.486	-2.099	-4.181	6913.993	584.976	1.999	80.000	42.000	0.390	12.800	0.000	4.199	2.260	58.998	0.000	17.000	0.000	0.000	-0.006	-0.011	-0.022	171.873	0.650	0.120	44.680534438124	10.022373821507	171.87	
		2.200	0.00	4.176	12.572	0.136	0.053	-0.982	3.503	-2.065	-4.149	6913.993	584.976	1.999	80.000	42.000	0.390	12.800	0.000	4.199	2.260	58.998	0.000	17.000	0.000	0.000	-0.006	-0.011	-0.022	171.873	0.650	0.120	44.680534421051	10.022373833837	171.87	
		2.300	0.00	4.176	12.605	0.005	0.003	-0.987	3.494	-2.103	-4.192	6913.993	584.976	1.999	80.000	42.000	0.390	12.800	0.000	4.199	2.260	58.998	0.000	17.000	0.000	0.000	-0.006	-0.011	-0.022	171.873	0.650	0.120	44.680534425976	10.022373848023	171.87	
		2.400	0.00	4.176	12.639	-0.018	0.017	-1.000	3.480	-2.158	-4.232	6913.993	584.976	1.999	80.000	42.000	0.390	12.800	0.000	4.199	2.260	58.998	0.000	17.000	0.000	0.000	-0.006	-0.011	-0.022	171.873	0.660	0.140	44.680534444445	10.022373858434	171.87	
		2.500	0.01	4.176	12.672	-0.130	0.007	-0.995	3.589	-2.096	-4.230	6913.993	584.976	1.999	80.000	42.000	0.390	12.800	0.000	4.199	2.260	58.998	0.100	17.000	0.000	0.000	-0.006	-0.011	-0.022	171.873	0.660	0.130	44.680534452508	10.022373865402	171.87	
		2.600	0.01	4.176	12.705	-0.260	-0.026	-0.970	3.534	-2.117	-3.872	6913.993	584.976	1.999	80.000	42.000	0.390	12.800	0.000	4.199	2.260	58.998	0.067	17.000	0.000	0.000	-0.006	-0.011	-0.022	171.873	0.660	0.130	44.680534433751	10.022373869383	171.87	
		2.700	0.01	4.176	12.738	-0.079	0.014	-1.017	3.509	-2.094	-4.217	6913.993	584.976	1.999	80.000	42.000	0.390	12.800	0.000	4.199	2.260	58.998	0.033	17.000	0.000	0.000	-0.006	-0.011	-0.022	171.873	0.660	0.120	44.680534394347	10.022373867113	171.87	
		2.800	0.01	4.176	12.772	0.017	0.036	-1.017	3.429	-2.042	-4.171	6913.993	584.976	1.999	80.000	42.000	0.390	12.800	0.000	4.199	2.260	58.998	0.000	17.000	0.000	0.000	-0.006	-0.011	-0.022	171.873	0.670	0.120	44.680534364344	10.022373853692	171.87	
		2.900	0.01	4.176	12.805	0.067	0.037	-1.020	3.456	-2.066	-4.173	6913.993	584.976	1.999	80.000	42.000	0.390	12.800	0.000	4.199	2.260	58.998	0.000	17.000	0.000	0.000	-0.006	-0.011	-0.022	171.873	0.680	0.130	44.680534361003	10.022373842703	171.87	
		3.000	0.01	4.176	12.838	-0.621	-0.121	-0.965	3.469	-2.023	-4.160	6913.993	584.976	1.999	80.000	42.000	0.390	12.800	0.000	4.199	2.260	58.998	0.100	16.000	0.000	0.000	-0.006	-0.011	-0.022	171.873	0.680	0.140	44.680534366281	10.022373842514	171.87	
		3.100	0.01	4.176	12.868	-0.200	-0.027	-1.000	3.469	-2.079	-4.159	6913.993	584.976	1.999	80.000	42.000	0.390	12.800	0.000	4.199	2.260	58.998	0.000	16.000	0.000	0.000	-0.006	-0.011	-0.022	171.873	0.680	0.120	44.680534353014	10.022373826373	171.87	
		3.200	0.01	4.177	12.897	-0.073	0.052	-1.001	3.522	-2.040	-4.157	6811.903	1286.961	16.000	81.999	42.000	0.830	13.000	0.000	8.898	2.158	58.998	0.100	16.000	0.000	0.000	-0.006	-0.011	-0.022	171.873	0.680	0.120	44.680534318980	10.022373764572	171.87	
		3.300	0.01	4.177	12.927	0.320	0.051	-1.037	3.766	-2.458	-4.521	7980.870	1327.532	16.040	81.999	42.000	0.829	13.092	0.000	8.882	2.179	58.998	0.000	16.000	0.000	0.000	-0.006	-0.011	-0.022	171.873	0.680	0.140	44.680534273847	10.022373735115	171.87	
		3.400	0.03	4.178	12.956	0.520	0.093	-0.940	3.549	-3.194	-4.168	8232.887	1365.716	17.039	81.999	42.000	0.812	13.004	0.000	8.889	2.169	58.998	0.500	16.000	0.000	0.000	-0.006	-0.011	-0.022	171.873	0.680	0.130	44.680534224398	10.022373937585	171.87	
		3.500	0.07	4.178	12.986	0.324	0.052	-0.964	3.611	-2.317	-4.186	6711.883	1403.970	17.999	81.999	42.000	0.890	13.096	0.000	9.469	2.139	58.998	1.600	16.000	0.000	0.000	-0.006	-0.011	-0.022	171.875	0.680	0.120	44.680534171216	10.022374554116	171.88	
		3.600	0.15	4.179	13.016	0.464	0.062	-1.003	3.411	-2.017	-4.267	6173.682	1502.519	20.040	81.999	42.000	0.928	13.208	0.000	9.488	2.128	58.998	2.900	16.000	0.000	0.000	-0.006	-0.011	-0.022	171.874	0.680	0.120	44.680534101064	10.022375646064	171.87	
		3.700	0.27	4.179	13.045	0.362	0.022	-1.002	3.804	-2.088	-4.328	5825.787	1543.090	21.040	81.959	42.000	0.901	13.392	0.000	9.599	2.118	58.998	4.200	16.000	0.000	0.000	-0.006	-0.011	2.178	171.845	0.680	0.120	44.680533996691	10.022377213561	171.85	
		3.800	0.43	4.180	13.075	0.280	-0.014	-0.970	3.733	-2.416	-4.182	5620.984	1637.989	22.999	80.998	42.000	0.960	13.096	0.000	10.195	2.100	58.998	5.600	16.000	0.000	0.000	-0.006	-0.011	-1.008	171.775	0.690	0.120	44.680533868534	10.022379275700	171.78	
		3.900	0.62	4.180	13.104	0.347	0.025	-1.013	3.592	-2.025	-4.302	5581.846	1677.717	23.999	81.038	42.000	0.922	13.196	0.000	10.378	2.089	58.998	7.000	16.000	-0.010	0.285	-0.006	-0.011	-4.514	171.694	0.690	0.120	44.680533746612	10.022381851515	171.69	
		4.000	0.85	4.181	13.134	0.358	0.016	-1.013	3.499	-2.123	-4.287	5579.361	1696.739	23.999	81.959	42.000	0.959	13.100	0.000	10.448	2.078	58.998	8.400	16.000	-0.010	0.409	-9.545	92.980	-2.566	171.642	0.690	0.120	44.680533635017	10.022384925300	171.64	
		4.100	1.13	4.181	13.159	0.408	0.029	-0.998	3.219	-1.934	-4.396	5637.965	1734.994	25.000	80.998	42.000	0.980	13.496	0.000	10.515	2.068	58.998	9.900	17.000	0.001	0.403	-9.545	92.980	0.207	171.619	0.690	0.120	44.680533515056	10.022388477708	171.62	
		4.200	1.44	4.181	13.184	0.439	0.022	-0.983	3.049	-1.133	-4.285	5704.438	1755.700	25.040	80.998	42.000	0.941	13.588	0.000	10.547	2.078	58.998	11.300	17.000	0.007	0.400	-9.545	92.980	1.491	171.601	0.690	0.120	44.680533372196	10.022392517199	171.60	
		4.300	1.79	4.181	13.209	0.437	0.057	-1.062	3.568	-1.679	-4.324	5744.818	1776.336	26.040	80.998	42.000	0.968	13.304	0.000	10.551	2.078	58.998	12.700	17.000	0.009	0.407	-6.680	92.888	1.513	171.582	0.690	0.120	44.680533200641	10.022397073868	171.58	
		4.400	2.19	4.181	13.233	0.181	-0.028	-0.963	4.463	-1.771	-4.513	5892.881	1890.959	27.999	80.998	42.000	0.930	13.296	0.000	10.734	2.068	58.998	14.200	17.000	0.006	0.420	-5.449	92.854	1.078	171.564	0.690	0.120	44.680532995823	10.022402164648	171.56	
		4.500	2.63	4.181	13.258	0.147	-0.076	-0.964	3.794	-2.120	-4.500	6005.532	1913.280	28.039	80.998	42.000	0.951	13.296	0.000	10.700	2.069	58.998	15.700	17.000	-0.006	0.428	-5.449	92.854	-0.755	171.546	0.700	0.120	44.680532780690	10.022407788805	171.55	
		4.600	3.10	4.181	13.283	0.377	0.013	-0.954	3.801	-3.084	-4.765	6047.777	1969.784	29.039	80.998	42.000	0.969	13.312	0.000	10.834	2.078	58.998	17.200	17.000	-0.016	0.420	-2.567	92.797	-2.039	171.526	0.700	0.120	44.680532587305	10.022413924976	171.53	
		4.700	3.62	4.181	13.308	0.291	0.007	-1.035	3.327	-1.855	-4.585	6280.949	2027.973	30.999	80.998	42.000	0.940	13.296	0.000	11.054	2.068	58.998	18.600	17.000	-0.010	0.405	-2.567	92.797	-1.237	171.504	0.700	0.120	44.680532418840	10.022420548877	171.51	
		4.800	4.18	4.181	13.333	0.370	-0.024	-0.994	3.659	-2.506	-4.771	6413.480	2087.495	32.039	80.998	42.000	0.949	13.412	0.000	11.232	2.069	58.998	20.000	17.000	0.001	0.400	-1.724	92.716	0.230	171.483	0.700	0.120	44.680532246910	10.022427645697	171.48	
		4.900	4.77	4.182	13.358	0.259	-0.019	-1.002	4.754	-2.543	-4.877	6576.246	2125.539	32.999	80.998	42.000	0.942	13.688	0.000	11.363	2.090	58.998	21.500	17.000	0.002	0.416	-1.724	92.716	0.322	171.462	0.700	0.120	44.680532059621	10.022435235596	171.46	
		5.000	5.41	4.182	13.382	0.784	0.160	-0.937	2.694	-0.332	-4.655	6863.880	2163.934	32.999	80.998	42.000	0.950	13.696	0.000	11.469	2.100	58.998	23.000	17.000	-0.007	0.463	-1.381	92.567	-0.664	171.447	0.700	0.120	44.680531855028	10.022443390697	171.45	
		5.100	6.10	4.182	13.296	0.893	0.080	-1.108	2.622	-2.704	-5.171	6905.296	2183.938	34.000	80.998	42.000	0.960	13.400	0.000	11.544	2.098	58.998	24.700	17.000	-0.013	0.528	-1.186	92.476	-1.122	171.439	0.700	0.120	44.680531616605	10.022452216875	171.44	
		5.200	6.84	4.182	13.209	0.443	0.046	-0.914	2.300	-1.732	-4.938	5406.657	2184.710	34.000	80.998	42.000	0.960	13.404	0.000	11.683	2.046	58.998	26.800	17.000	-0.015	0.561	-1.106	92.430	-1.145	171.432	0.700	0.120	44.680531318993	10.022461777071	171.43	
		5.300	7.64	4.183	13.122	0.506	0.014	-1.126	2.219	-1.377	-5.017	5060.833	2201.978	34.000	80.000	42.000	0.970	13.496	0.000	11.758	2.000	58.998	28.700	17.000	-0.017	0.523	-0.882	92.281	-1.237	171.420	0.710	0.120	44.680530973531	10.022472013848	171.42	
		5.400	8.48	4.183	13.035	0.259	-0.055	-0.982	2.881	-2.421	-5.360	5370.003	2222.754	34.040	80.000	42.000	0.989	13.496	0.000	11.758	2.030	58.998	30.400	17.000	-0.017	0.461	-0.773	92.098	-1.191	171.406	0.710	0.120	44.680530614588	10.022482814689	171.41	
		5.500	9.37	4.183	12.948	0.207	-0.088	-0.982	2.131	-2.694	-5.447	5501.914	2241.987	35.000	80.000	42.000	0.960	13.496	0.000	11.749	2.048	58.998	31.900	17.000	-0.014	0.437	-0.727	92.017	-0.847	171.396	0.710	0.120	44.680530265862	10.022494134426	171.40	
		5.600	10.30	4.183	12.862	0.321	-0.051	-1.027	2.851	-1.536	-5.689	5935.954	2241.987	35.000	80.000	42.000	0.950	13.496	0.000	11.398	2.010	58.998	33.500	17.000	-0.019	0.440	-0.687	91.616	-1.076	171.387	0.710	0.120	44.680529927996	10.022506018393	171.39	
		5.700	11.28	4.184	12.775	0.282	-0.018	-0.976	2.673	-2.343	-5.890	6145.726	1907.033	27.919	80.000	42.000	0.942	13.692	0.000	10.901	2.079	58.998	35.100	17.000	-0.043	0.421	-0.722	91.227	-2.451	171.379	0.710	0.120	44.680529619525	10.022518466628	171.38	
		5.800	12.29	4.184	12.688	0.330	-0.080	-1.053	3.455	-1.510	-6.902	6313.875	1812.976	26.000	80.000	42.000	0.979	13.596	0.000	10.580	2.100	58.998	36.500	17.000	-0.073	0.384	-0.768	90.723	-4.033	171.370	0.710	0.120	44.680529365538	10.022531403680	171.37	
		5.900	13.34	4.184	12.601	0.250	-0.105	-0.911	4.058	-3.048	-8.323	6643.960	1812.976	26.000	80.000	42.000	0.940	13.696	0.000	10.648	2.109	58.998	37.700	17.000	-0.101	0.365	-0.768	90.195	-5.431	171.357	0.710	0.120	44.680529192500	10.022544768070	171.36	
		6.000	14.42	4.185	12.515	0.222	-0.229	-1.083	4.094	-1.818	-10.523	6774.628	1784.619	25.799	80.000	42.000	0.929	13.696	0.000	10.612	2.120	58.998	39.100	17.000	-0.130	0.362	-0.733	89.600	-6.577	171.340	0.710	0.120	44.680529125671	10.022558584638	171.34	
		6.100	15.54	4.185	12.537	0.379	-0.003	-0.932	3.743	-0.783	-11.984	6893.699	1556.075	20.919	80.000	42.000	0.912	13.692	0.000	10.093	2.139	58.998	40.300	17.000	-0.162	0.318	-0.682	88.923	-7.929	171.323	0.720	0.120	44.680529201987	10.022572847968	171.32	
		6.200	16.69	4.186	12.559	0.140	-0.068	-0.916	4.177	-5.067	-12.017	7095.810	993.982	10.000	78.999	42.000	0.780	13.600	0.000	8.328	2.199	58.998	41.400	17.000	-0.190	0.194	-0.636	88.202	-8.960	171.305	0.720	0.130	44.680529440019	10.022587417318	171.31	
		6.300	17.85	4.186	12.582	-0.421	-0.280	-0.994	3.271	0.142	-13.788	6566.720	624.704	2.999	78.999	42.000	0.331	13.416	0.000	3.394	2.239	58.998	41.700	17.000	-0.215	0.017	-0.596	87.411	-10.175	171.283	0.720	0.140	44.680529866809	10.022602037215	171.28	
		6.400	19.00	4.187	12.604	-0.037	-0.135	-1.070	3.713	-1.981	-12.550	7082.143	642.954	2.999	78.999	42.000	0.349	11.476	0.000	3.528	2.259	58.998	41.400	17.000	-0.222	-0.120	-0.561	86.574	-10.725	171.264	0.720	0.140	44.680530514072	10.022616483252	171.26	
		6.500	20.14	4.187	12.627	-0.107	-0.212	-1.086	4.601	-4.608	-12.684	6870.713	642.954	2.999	78.999	42.000	0.329	10.992	0.000	3.735	2.250	58.998	40.900	17.000	-0.206	-0.158	-0.515	85.703	-10.312	171.256	0.720	0.140	44.680531396464	10.022630652131	171.26	
		6.600	21.26	4.188	12.649	-0.010	-0.243	-0.907	3.843	-0.961	-11.576	6808.796	876.973	7.999	78.999	42.000	0.600	12.600	0.000	7.097	2.219	58.998	40.300	17.000	-0.177	-0.093	-0.452	84.821	-8.914	171.254	0.720	0.140	44.680532468752	10.022644609617	171.25	
		6.700	22.37	4.189	12.671	0.024	-0.191	-1.006	1.617	-2.234	-12.008	7311.380	1229.545	15.000	78.999	42.000	0.823	12.904	0.000	8.945	2.179	58.998	40.200	17.000	-0.163	0.039	-0.384	83.939	-8.319	171.255	0.720	0.140	44.680533679370	10.022658562507	171.26	
		6.800	23.50	4.189	12.694	0.266	-0.132	-0.998	2.697	-2.241	-11.328	6698.423	1267.799	15.040	78.999	42.000	0.900	13.092	0.000	8.933	2.170	58.998	40.600	17.000	-0.163	0.164	-0.303	83.102	-8.135	171.253	0.720	0.140	44.680535017649	10.022672724659	171.25	
		6.900	24.65	4.190	12.716	0.260	-0.038	-0.930	1.670	-1.036	-10.763	7081.935	1305.983	16.000	78.999	42.000	0.850	13.000	0.000	9.109	2.170	58.998	41.400	17.000	-0.173	0.191	-0.252	82.312	-8.433	171.248	0.720	0.140	44.680536542520	10.022687148694	171.25	
		7.000	25.82	4.190	12.739	-0.224	-0.047	-0.942	1.504	-0.018	-10.389	7185.268	1202.240	13.520	78.959	42.000	0.846	13.104	0.000	8.862	2.183	58.998	42.000	17.000	-0.173	0.099	-0.258	81.601	-8.181	171.241	0.720	0.140	44.680538296527	10.022701700927	171.24	
		7.100	26.98	4.190	12.742	-0.043	-0.023	-0.966	2.986	-0.402	-10.128	6768.830	584.976	1.999	77.999	42.000	0.290	13.296	0.000	3.291	2.260	58.998	41.850	17.000	-0.158	-0.043	-0.309	80.948	-7.493	171.236	0.720	0.140	44.680540233709	10.022716186123	171.24	
		7.200	28.14	4.190	12.745	-0.037	-0.106	-1.053	2.494	-3.466	-9.391	6996.825	584.976	1.999	77.999	42.000	0.260	13.400	0.000	2.869	2.270	58.998	41.700	17.000	-0.125	-0.134	-0.349	80.341	-5.866	171.233	0.720	0.140	44.680542242935	10.022730480209	171.23	
		7.300	29.28	4.190	12.748	-0.325	-0.046	-0.984	3.394	-2.278	-8.828	6926.211	584.976	1.999	77.999	42.000	0.252	13.404	0.000	2.878	2.260	58.998	41.000	17.000	-0.097	-0.152	-0.361	79.779	-4.675	171.230	0.720	0.140	44.680544260763	10.022744561762	171.23	
		7.400	30.41	4.190	12.751	-0.202	-0.038	-1.010	3.464	-2.311	-7.981	6834.682	584.976	1.999	77.999	42.000	0.289	13.504	0.000	2.870	2.260	58.998	40.700	17.000	-0.084	-0.149	-0.344	79.263	-4.079	171.221	0.720	0.140	44.680546294651	10.022758442768	171.22	
		7.500	31.52	4.190	12.753	-0.199	-0.067	-0.998	3.179	-1.684	-7.746	6687.862	603.998	1.999	77.999	42.000	0.290	13.600	0.000	2.889	2.260	58.998	40.100	17.000	-0.086	-0.170	-0.326	78.816	-4.422	171.207	0.720	0.140	44.680548372595	10.022772091426	171.21	
		7.600	32.62	4.190	12.756	-0.194	-0.010	-1.036	2.724	-1.678	-7.501	6637.748	631.794	3.119	77.999	42.000	0.309	13.604	0.000	2.959	2.237	58.998	39.400	17.000	-0.083	-0.156	-0.332	78.450	-4.354	171.192	0.720	0.140	44.680550506773	10.022785482831	171.19	
		7.700	33.70	4.190	12.759	0.178	0.070	-1.033	3.833	-3.032	-7.042	6597.989	827.558	6.200	77.999	42.000	0.541	13.700	0.000	3.817	2.209	58.998	38.900	17.000	-0.071	-0.056	-0.355	78.163	-3.849	171.182	0.720	0.140	44.680552693451	10.022798712102	171.18	
		7.800	34.78	4.190	12.762	0.454	0.077	-0.986	2.500	-4.210	-6.419	6907.988	1286.961	16.000	77.999	42.000	0.820	13.800	0.000	9.015	2.170	58.998	39.000	17.000	-0.051	0.091	-0.384	77.957	-2.704	171.179	0.720	0.140	44.680554930760	10.022811997280	171.18	
		7.900	35.88	4.190	12.765	0.104	0.026	-0.969	3.828	-2.931	-5.035	6847.313	1307.527	16.040	77.959	42.000	0.891	13.504	0.000	8.972	2.169	58.998	39.600	17.000	-0.029	0.192	-0.407	77.797	-1.535	171.180	0.710	0.140	44.680557221446	10.022825528541	171.18	
		8.000	37.00	4.190	12.768	0.302	0.009	-1.098	3.937	-2.873	-4.556	6838.409	1347.326	17.039	77.000	41.960	0.928	13.696	0.000	9.079	2.158	58.998	40.400	17.000	0.001	0.224	-0.418	77.682	0.070	171.178	0.710	0.140	44.680559563137	10.022839363594	171.18	
		8.100	38.15	4.190	12.733	0.286	-0.032	-1.135	5.087	-0.188	-3.734	7113.826	1422.992	18.999	77.000	42.000	0.960	13.696	0.000	9.523	2.148	58.998	41.200	18.000	0.027	0.218	-0.412	77.613	1.376	171.171	0.710	0.140	44.680561934069	10.022853470352	171.17	
		8.200	39.31	4.190	12.697	0.114	-0.031	-0.977	4.209	-2.678	-2.793	7163.111	1325.145	16.959	77.000	40.999	0.852	13.772	0.000	9.107	2.170	58.998	41.900	18.000	0.034	0.217	-0.407	77.636	1.766	171.163	0.710	0.140	44.680564316031	10.022867823426	171.16	
		8.300	40.50	4.190	12.662	0.193	0.014	-1.000	6.056	-2.764	-3.767	7339.543	1305.211	16.000	77.000	40.999	0.915	13.128	0.000	8.874	2.170	58.998	42.700	18.000	0.018	0.216	-0.407	77.751	0.872	171.154	0.700	0.130	44.680566712250	10.022882433544	171.16	
		8.400	41.70	4.190	12.627	-0.258	-0.159	-0.969	4.590	-0.007	-4.048	7347.826	896.977	7.999	77.000	40.999	0.710	11.496	0.000	7.219	2.219	58.998	43.400	18.000	-0.002	0.193	-0.418	77.991	-0.160	171.143	0.700	0.120	44.680569140062	10.022897299052	171.14	
		8.500	42.93	4.190	12.591	-0.306	0.024	-1.056	1.811	-1.142	-3.793	5497.565	870.726	6.879	77.000	40.999	0.656	10.992	0.000	7.528	2.187	58.998	44.100	18.000	-0.002	0.135	-0.418	78.289	-0.205	171.128	0.700	0.120	44.680571594382	10.022912363626	171.13	
		8.600	44.16	4.190	12.556	-0.000	0.185	-1.019	3.536	-1.444	-1.038	5002.643	720.937	3.999	77.000	40.999	0.561	10.868	0.000	5.337	2.122	58.998	44.400	18.000	0.041	0.049	-0.401	78.599	1.697	171.112	0.690	0.130	44.680574025181	10.022927509229	171.11	
		8.700	45.39	4.190	12.520	-0.154	0.268	-0.867	3.983	-2.151	2.939	5166.858	662.959	2.999	75.999	40.999	0.520	12.696	0.000	3.898	2.170	58.998	44.250	18.000	0.127	-0.029	-0.401	78.885	5.662	171.100	0.690	0.140	44.680576342943	10.022942640237	171.10	
		8.800	46.61	4.190	12.485	-0.125	0.273	-1.074	3.006	-2.030	4.139	5346.811	642.182	2.999	75.999	40.999	0.420	12.820	0.000	3.666	2.179	58.998	44.100	18.000	0.201	-0.080	-0.424	79.149	9.214	171.093	0.690	0.140	44.680578463926	10.022957728847	171.09	
		8.900	47.83	4.190	12.449	-0.263	0.139	-1.063	3.628	-4.516	2.788	5176.383	623.932	2.959	75.999	40.999	0.409	13.292	0.000	3.560	2.170	58.998	43.900	18.000	0.191	-0.127	-0.430	79.389	8.824	171.088	0.690	0.130	44.680580375438	10.022972753006	171.09	
		9.000	49.04	4.190	12.414	-0.301	-0.008	-0.977	4.756	-2.207	0.226	5073.879	603.998	1.999	75.999	40.999	0.380	13.296	0.000	3.279	2.170	58.998	43.300	18.000	0.105	-0.205	-0.407	79.596	4.722	171.087	0.690	0.120	44.680582157758	10.022987586382	171.09	
		9.100	50.21	4.190	12.470	-0.395	-0.108	-1.009	3.002	-1.195	-4.548	4951.494	603.998	1.999	75.999	40.999	0.369	13.208	0.000	3.269	2.158	58.998	42.400	18.000	0.013	-0.284	-0.389	79.756	0.459	171.087	0.690	0.120	44.680583905790	10.023002070281	171.09	
		9.200	51.36	4.190	12.525	-0.365	-0.029	-1.093	3.258	-2.823	-5.748	4885.436	603.226	1.999	75.999	40.999	0.350	13.396	0.000	3.249	2.157	58.998	41.300	18.000	-0.029	-0.333	-0.395	79.848	-1.535	171.081	0.680	0.120	44.680585639513	10.023016134786	171.08	
		9.300	52.48	4.190	12.580	-0.450	-0.028	-1.005	3.972	-2.769	-5.447	4729.297	584.976	1.999	75.999	40.999	0.360	13.300	0.000	3.219	2.138	58.998	40.100	18.000	-0.038	-0.358	-0.430	79.813	-1.833	171.068	0.680	0.120	44.680587323906	10.023029775503	171.07	
		9.400	53.55	4.190	12.636	-0.286	-0.039	-1.053	3.024	-1.006	-6.154	4525.944	584.976	1.999	74.999	40.999	0.370	13.696	0.000	3.238	2.119	58.998	38.800	18.000	-0.052	-0.351	-0.493	79.642	-2.635	171.056	0.680	0.120	44.680588964051	10.023042980245	171.06	
		9.500	54.59	4.190	12.691	0.243	-0.046	-1.081	4.574	-2.392	-8.532	4584.548	3056.840	50.959	74.999	40.999	0.989	10.608	0.000	14.685	2.030	58.998	37.500	18.000	-0.086	-0.285	-0.573	79.355	-4.606	171.049	0.680	0.120	44.680590631362	10.023055784031	171.05	
		9.600	55.62	4.190	12.747	-0.139	-0.135	-0.917	2.302	-2.845	-10.155	6635.056	2886.064	48.079	74.999	40.999	0.938	10.872	0.000	12.735	2.065	58.998	36.800	18.000	-0.122	-0.212	-0.647	79.000	-6.783	171.039	0.680	0.120	44.680592397818	10.023068301013	171.04	
		9.700	56.62	4.190	12.802	-0.295	-0.105	-1.031	3.375	0.345	-10.679	5439.997	584.976	1.999	74.999	40.999	0.340	13.000	0.000	3.289	2.209	58.998	36.200	18.000	-0.142	-0.219	-0.664	78.885	-8.089	171.026	0.680	0.120	44.680594270468	10.023080563786	171.03	
		9.800	57.60	4.190	12.858	-0.120	-0.019	-1.049	2.467	-3.244	-10.286	5966.809	584.976	1.999	74.999	40.999	0.318	13.000	0.000	3.077	2.228	58.998	35.300	18.000	-0.122	-0.269	-0.676	78.266	-7.196	171.013	0.680	0.120	44.680596201874	10.023092490187	171.01	
		9.900	58.55	4.190	12.913	-0.213	0.034	-0.982	3.123	-1.873	-7.562	5744.818	584.976	1.999	74.999	40.999	0.281	13.012	0.000	3.048	2.218	58.998	34.100	18.000	-0.065	-0.260	-0.676	77.774	-3.849	170.997	0.680	0.120	44.680598135332	10.023104043058	171.00	
		10.000	59.48	4.190	12.969	-0.102	-0.006	-1.051	3.545	-1.386	-5.153	5635.895	584.976	1.999	73.998	40.999	0.310	13.296	0.000	3.058	2.209	58.998	33.500	18.000	-0.018	-0.161	-0.682	77.556	-0.870	170.980	0.680	0.120	44.680600047134	10.023115346714	170.98	
		10.100	60.40	4.190	13.013	0.300	-0.061	-1.065	5.039	-1.325	-6.891	5669.855	1128.890	12.360	73.998	40.999	0.765	13.292	0.000	8.139	2.157	59.080	33.100	18.000	-0.024	-0.011	-0.699	76.800	-1.397	170.968	0.680	0.120	44.680601968747	10.023126588057	170.97	
		10.200	61.33	4.190	13.057	0.263	-0.095	-1.006	4.388	-3.825	-8.292	6521.576	1566.183	21.120	73.998	40.999	0.893	13.208	0.000	9.997	2.137	60.998	33.300	18.000	-0.059	0.174	-0.733	76.181	-3.849	170.963	0.680	0.120	44.680603972469	10.023137986648	170.96	
		10.300	62.28	4.190	13.101	0.455	-0.036	-1.058	3.855	-1.840	-8.325	6143.862	2163.934	32.999	73.998	40.999	0.980	13.600	0.000	11.367	2.049	60.998	34.300	18.000	-0.073	0.339	-0.813	75.505	-4.629	170.955	0.680	0.130	44.680606109814	10.023149764796	170.96	
		10.400	63.27	4.190	13.146	0.494	-0.034	-1.001	4.455	-0.680	-7.841	6265.418	2241.987	35.000	73.998	40.999	0.951	13.400	0.000	11.477	2.030	60.998	35.800	18.000	-0.071	0.419	-0.888	74.920	-3.987	170.941	0.680	0.140	44.680608383259	10.023162067086	170.94	
		10.500	64.31	4.190	13.190	0.290	-0.172	-0.994	3.967	-2.826	-8.481	6407.889	2241.987	35.000	73.998	40.999	0.970	13.412	0.000	11.668	2.050	60.998	37.200	18.000	-0.108	0.415	-0.911	74.359	-5.798	170.930	0.680	0.140	44.680610811964	10.023174883380	170.93	
		10.600	65.38	4.190	13.234	0.581	-0.191	-0.995	3.520	-4.875	-12.708	6811.903	2241.987	35.000	73.998	40.999	0.950	13.696	0.000	11.773	2.090	60.998	38.700	18.000	-0.187	0.411	-0.911	73.763	-10.106	170.919	0.670	0.140	44.680613481059	10.023188143060	170.92	
		10.700	66.49	4.190	13.278	0.600	0.024	-0.873	0.505	-4.159	-14.931	7031.822	2578.625	41.119	73.998	40.999	0.969	13.400	0.000	12.245	2.099	60.998	40.100	18.000	-0.222	0.438	-0.945	73.075	-11.848	170.900	0.660	0.140	44.680616469372	10.023201820118	170.90	
		10.800	67.66	4.190	13.322	0.444	0.083	-0.995	0.742	-2.496	-9.712	7325.875	2689.949	44.000	73.998	40.999	0.961	13.404	0.000	12.693	2.089	60.998	41.800	18.000	-0.155	0.468	-1.014	72.285	-7.746	170.870	0.660	0.140	44.680619745678	10.023215965900	170.87	
		10.900	68.86	4.190	13.366	0.355	0.073	-1.005	3.063	-2.396	-6.158	7616.823	2163.934	32.999	73.998	40.999	0.950	13.496	0.000	12.078	2.119	60.998	43.500	18.000	-0.071	0.458	-1.083	71.448	-3.047	170.837	0.660	0.130	44.680623207178	10.023230616700	170.84	
		11.000	70.11	4.190	13.411	0.443	-0.178	-1.014	4.829	-2.566	-8.529	7826.389	2144.000	32.999	73.998	40.999	0.940	13.692	0.000	12.049	2.119	61.079	45.000	18.000	-0.086	0.417	-1.169	70.577	-3.506	170.809	0.660	0.120	44.680626818251	10.023245740536	170.81	
		11.100	71.40	4.190	13.419	0.261	-0.372	-0.993	4.961	-1.990	-14.406	8037.196	2143.157	32.999	73.998	40.999	0.940	13.608	0.000	12.091	2.119	63.000	46.400	18.000	-0.206	0.376	-1.272	69.718	-9.006	170.789	0.660	0.130	44.680630681040	10.023261252487	170.79	
		11.200	72.73	4.191	13.427	0.166	-0.304	-1.033	4.398	-1.616	-16.370	8198.512	2111.501	32.720	73.998	40.999	0.931	13.800	0.000	11.970	2.120	63.000	47.700	18.000	-0.319	0.347	-1.335	68.904	-13.934	170.771	0.660	0.140	44.680634933692	10.023277072996	170.77	
		11.300	74.09	4.191	13.436	0.249	-0.254	-1.038	4.578	-1.070	-15.784	8528.805	1715.972	25.000	73.998	40.999	0.930	13.600	0.000	10.359	2.129	63.000	48.900	18.000	-0.326	0.324	-1.335	68.182	-13.934	170.741	0.660	0.140	44.680639601347	10.023293132508	170.74	
		11.400	75.48	4.191	13.444	0.300	-0.115	-1.049	3.880	-1.586	-12.513	8555.311	1823.084	26.200	73.998	40.999	0.901	13.604	0.000	10.468	2.128	63.000	50.000	18.000	-0.246	0.317	-1.312	67.564	-10.106	170.709	0.660	0.140	44.680644593795	10.023309414372	170.71	
		11.500	76.89	4.191	13.452	0.361	-0.071	-0.945	3.171	-3.493	-8.233	8810.641	2074.510	31.200	73.998	40.999	0.941	13.688	0.000	11.792	2.120	63.000	51.100	18.000	-0.170	0.344	-1.306	67.048	-6.714	170.667	0.660	0.140	44.680649832912	10.023325970029	170.67	
		11.600	78.35	4.191	13.461	0.546	-0.197	-1.050	4.501	-2.331	-9.229	9094.962	2475.935	39.000	73.998	40.999	0.940	13.696	0.000	13.125	2.139	63.000	52.400	18.000	-0.134	0.393	-1.335	66.681	-5.316	170.624	0.660	0.140	44.680655331466	10.023342887117	170.63	
		11.700	79.85	4.191	13.469	0.562	-0.079	-1.001	2.623	-1.594	-8.758	9408.896	3270.292	55.679	73.958	40.999	0.950	13.696	0.000	14.294	2.086	63.000	53.900	18.000	-0.100	0.437	-1.375	66.486	-3.987	170.582	0.660	0.140	44.680661105516	10.023360238013	170.58	
		11.800	81.39	4.192	13.477	0.403	0.185	-0.967	2.313	-2.418	-2.352	9586.156	4103.325	72.199	73.000	40.999	0.951	13.692	0.000	15.194	2.000	63.000	55.500	18.000	-0.015	0.467	-1.363	66.521	-0.710	170.550	0.660	0.140	44.680667085510	10.023378105885	170.55	
		11.900	82.98	4.192	13.486	0.389	0.274	-0.975	2.646	-2.099	2.531	10072.794	4579.996	82.000	73.000	40.999	0.980	13.496	0.000	16.015	2.000	63.000	57.200	18.000	0.115	0.493	-1.329	66.761	4.172	170.510	0.660	0.140	44.680673137795	10.023396594521	170.51	
		12.000	84.62	4.192	13.494	0.644	0.360	-1.037	3.728	-1.887	3.079	10374.510	4579.996	82.000	73.000	40.999	0.989	13.576	0.000	16.079	1.969	63.040	59.000	18.000	0.221	0.520	-1.272	67.185	7.816	170.474	0.660	0.140	44.680679173490	10.023415783228	170.48	
		12.100	86.31	4.192	13.477	0.568	0.299	-1.012	4.036	-1.498	3.145	10521.123	4579.996	82.000	73.000	40.999	0.968	13.024	0.000	16.101	1.949	63.999	60.900	18.000	0.263	0.532	-1.220	67.770	8.916	170.434	0.650	0.140	44.680685170304	10.023435683981	170.44	
		12.200	88.05	4.192	13.460	0.402	0.364	-1.021	1.956	-2.807	3.634	11014.802	4579.996	82.000	73.000	40.999	0.980	13.496	0.000	15.875	1.949	63.999	62.700	18.000	0.271	0.523	-1.174	68.503	8.779	170.394	0.650	0.140	44.680691123193	10.023456278449	170.40	
		12.300	89.84	4.191	13.444	0.444	0.327	-0.992	2.131	-0.975	5.458	11290.633	4579.996	82.000	73.000	40.999	0.933	13.596	0.000	15.426	1.949	63.999	64.500	18.000	0.297	0.509	-1.129	69.363	9.374	170.356	0.650	0.140	44.680696997358	10.023477575806	170.36	
		12.400	91.68	4.191	13.427	0.423	0.415	-1.041	2.875	-1.799	4.962	11509.310	4579.996	82.000	73.000	40.999	1.007	13.500	0.000	15.327	1.949	63.999	66.300	18.000	0.332	0.489	-1.065	70.291	10.222	170.327	0.650	0.140	44.680702749997	10.023499595529	170.33	
		12.500	93.57	4.191	13.410	0.181	0.341	-0.915	3.061	-2.134	4.525	11894.893	4579.996	82.000	73.000	39.999	0.920	13.600	0.000	14.984	1.939	63.999	68.000	18.000	0.359	0.465	-1.002	71.253	10.772	170.297	0.650	0.140	44.680708345091	10.023522327678	170.30	
		12.600	95.51	4.191	13.394	0.517	0.537	-0.975	3.250	-1.911	6.908	11192.684	4579.996	82.000	73.000	39.999	0.941	11.192	0.000	16.220	1.950	63.999	69.600	18.000	0.383	0.450	-0.917	72.193	11.208	170.259	0.650	0.140	44.680713746047	10.023545748281	170.26	
		12.700	97.48	4.190	13.377	0.517	0.420	-1.000	4.111	-3.336	4.168	10064.511	4579.996	82.000	73.000	39.999	0.970	11.044	0.000	16.966	1.980	63.999	71.200	18.000	0.398	0.456	-0.836	73.247	11.437	170.221	0.650	0.140	44.680718924352	10.023569871254	170.22	
		12.800	99.51	4.190	13.360	0.342	0.392	-1.057	3.845	-0.190	4.464	9018.963	4579.996	82.000	73.000	39.999	0.970	12.496	0.000	15.508	2.000	63.999	72.800	18.000	0.373	0.449	-0.756	74.107	10.452	170.190	0.650	0.140	44.680723890141	10.023594691477	170.19	
		12.900	101.57	4.190	13.344	0.431	0.390	-1.094	3.415	-1.512	3.056	9092.477	4579.996	82.000	73.000	39.999	0.969	12.804	0.000	15.454	2.000	63.999	74.400	18.000	0.326	0.409	-0.682	74.875	8.870	170.162	0.650	0.140	44.680728676774	10.023620129709	170.16	
		13.000	103.67	4.190	13.327	0.421	0.304	-0.976	4.215	-1.461	2.865	9209.063	4579.996	82.000	73.000	39.999	0.961	12.904	0.000	15.476	2.000	63.999	75.700	18.000	0.287	0.372	-0.630	75.539	7.701	170.141	0.650	0.140	44.680733296093	10.023646090601	170.14	
		13.100	105.81	4.190	13.336	0.420	0.258	-1.072	4.092	-0.691	1.171	9360.438	4579.996	82.000	73.000	39.999	0.980	13.092	0.000	15.475	2.000	63.999	77.000	18.000	0.254	0.370	-0.596	76.055	6.762	170.128	0.650	0.140	44.680737755948	10.023672560408	170.13	
		13.200	107.99	4.189	13.345	0.437	0.178	-1.013	3.750	-2.882	-1.292	9583.878	4579.996	82.000	73.000	39.999	0.980	13.096	0.000	15.555	2.000	63.999	78.300	18.000	0.196	0.379	-0.567	76.422	5.135	170.098	0.650	0.140	44.680742108109	10.023699550111	170.10	
		13.300	110.20	4.189	13.353	0.407	0.073	-0.972	3.703	-1.923	-3.565	9673.751	4576.135	81.920	73.000	39.999	0.979	13.296	0.000	15.724	2.000	63.999	79.700	18.000	0.117	0.386	-0.573	76.616	2.980	170.077	0.650	0.140	44.680746435861	10.023727025117	170.08	
		13.400	112.45	4.189	13.362	0.347	0.044	-1.029	4.161	-2.304	-5.114	9795.721	4476.955	79.839	73.000	39.999	0.961	13.296	0.000	15.862	2.000	63.999	81.000	18.000	0.027	0.398	-0.550	76.674	0.688	170.071	0.640	0.140	44.680750812184	10.023754958312	170.07	
		13.500	114.74	4.189	13.371	0.393	-0.120	-1.001	4.501	-2.510	-6.761	10040.904	3995.932	69.999	73.000	39.999	0.960	13.296	0.000	15.703	2.000	63.999	82.400	18.000	-0.075	0.367	-0.510	76.605	-1.787	170.064	0.640	0.130	44.680755311381	10.023783344758	170.07	
		13.600	117.07	4.189	13.380	-0.040	-0.232	-0.899	3.661	-0.033	-9.365	10132.434	2269.783	35.599	73.000	39.999	0.943	13.416	0.000	12.540	2.160	63.999	83.700	18.000	-0.178	0.226	-0.527	76.433	-4.239	170.034	0.640	0.120	44.680760015340	10.023812053589	170.04	
		13.700	119.40	4.189	13.389	-0.024	-0.218	-1.145	3.592	-0.501	-10.273	9448.447	584.976	1.999	73.000	39.999	0.289	13.804	0.000	0.000	2.450	63.999	84.100	18.000	-0.247	-0.012	-0.515	76.181	-5.866	170.012	0.640	0.120	44.680764954692	10.023840753635	170.01	
		13.800	121.72	4.188	13.397	-0.370	-0.154	-1.023	3.163	-3.841	-8.597	9929.909	584.976	1.999	73.000	39.999	0.240	13.696	0.000	0.000	2.469	63.999	83.500	18.000	-0.259	-0.235	-0.510	75.849	-6.164	169.976	0.640	0.120	44.680770078546	10.023869106805	169.98	
		13.900	124.01	4.188	13.406	-0.479	-0.176	-0.932	3.181	-1.993	-8.211	9735.254	584.976	1.999	73.000	39.999	0.230	13.892	0.000	0.000	2.449	63.999	82.300	18.000	-0.235	-0.359	-0.550	75.447	-5.614	169.944	0.640	0.120	44.680775310355	10.023896951521	169.95	
		14.000	126.26	4.188	13.415	-0.599	-0.116	-1.025	2.517	-2.316	-7.279	9594.646	584.976	1.999	73.040	39.999	0.230	13.792	0.000	0.000	2.449	63.999	81.000	18.000	-0.202	-0.400	-0.607	75.012	-4.927	169.931	0.640	0.130	44.680780609898	10.023924254261	169.93	
		14.100	128.47	4.188	13.432	-0.401	-0.100	-0.993	3.066	-2.361	-7.108	9324.820	584.976	1.999	73.998	39.000	0.240	13.800	0.000	0.000	2.449	63.999	79.600	18.000	-0.174	-0.419	-0.624	74.565	-4.354	169.926	0.640	0.140	44.680785960488	10.023950987823	169.93	
		14.200	130.64	4.188	13.448	-0.453	-0.100	-0.996	3.760	-2.343	-7.169	9163.920	584.976	1.999	73.998	39.000	0.231	13.700	0.000	0.000	2.449	63.999	78.100	18.000	-0.154	-0.440	-0.659	74.118	-3.895	169.898	0.640	0.140	44.680791338802	10.023977131236	169.90	
		14.300	132.76	4.189	13.465	-0.542	-0.113	-0.967	3.571	-2.082	-7.134	9011.509	584.976	1.999	73.998	39.000	0.250	13.796	0.000	0.110	2.447	63.999	76.500	18.000	-0.147	-0.464	-0.647	73.671	-3.827	169.877	0.640	0.140	44.680796716092	10.024002684595	169.88	
		14.400	134.84	4.189	13.481	-0.639	-0.130	-1.026	3.555	-3.009	-7.246	8708.964	584.976	1.999	73.998	39.000	0.220	13.696	0.000	2.658	2.359	63.999	74.800	18.000	-0.146	-0.484	-0.642	73.213	-3.895	169.858	0.640	0.140	44.680802081649	10.024027631333	169.86	
		14.500	136.87	4.189	13.498	-0.542	-0.118	-0.965	2.628	-1.571	-6.989	8566.907	584.976	1.999	73.998	39.000	0.259	13.804	0.000	2.700	2.317	63.999	73.100	18.000	-0.139	-0.505	-0.664	72.881	-3.804	169.834	0.640	0.140	44.680807437541	10.024051928422	169.84	
		14.600	138.85	4.189	13.514	-0.605	-0.076	-1.013	3.633	-2.337	-7.367	8416.153	584.976	1.999	73.998	39.000	0.240	13.896	0.000	2.730	2.289	63.999	71.300	18.000	-0.130	-0.511	-0.716	72.296	-3.643	169.804	0.640	0.140	44.680812781464	10.024075549475	169.81	
		14.700	140.78	4.190	13.531	-0.482	-0.133	-0.980	3.456	1.592	-7.485	8141.979	584.976	1.999	73.998	39.000	0.280	13.896	0.000	2.850	2.279	63.999	69.400	18.000	-0.144	-0.477	-0.768	71.586	-4.102	169.772	0.640	0.140	44.680818119390	10.024098528453	169.77	
		14.800	142.67	4.190	13.547	-0.331	-0.279	-1.082	4.835	-5.791	-10.102	8003.028	584.976	1.999	73.998	39.000	0.270	13.700	0.000	2.944	2.270	63.999	67.900	18.000	-0.202	-0.400	-0.790	70.726	-5.935	169.743	0.640	0.140	44.680823497775	10.024120947262	169.75	
		14.900	144.52	4.190	13.564	-0.334	-0.433	-0.876	3.959	-2.690	-15.790	7835.500	584.976	1.999	73.998	39.000	0.270	13.800	0.000	2.832	2.279	63.999	66.700	18.000	-0.307	-0.324	-0.808	69.684	-9.327	169.719	0.640	0.140	44.680829013714	10.024142874489	169.72	
		15.000	146.34	4.190	13.580	-0.242	-0.577	-1.038	2.477	-0.914	-18.482	7752.875	584.976	1.999	73.998	39.000	0.270	13.792	0.000	2.916	2.279	63.999	65.600	18.000	-0.429	-0.273	-0.802	68.434	-13.269	169.696	0.640	0.140	44.680834785967	10.024164319389	169.70	
		15.100	148.14	4.190	13.577	-0.152	-0.674	-1.058	4.839	-1.663	-21.876	7715.808	584.976	1.999	73.998	39.000	0.260	13.696	0.000	2.920	2.279	63.999	64.700	18.000	-0.535	-0.231	-0.785	66.979	-16.730	169.669	0.640	0.140	44.680840929237	10.024185259597	169.67	
		15.200	149.92	4.191	13.574	-0.131	-0.730	-1.021	4.541	-0.568	-24.407	7685.367	584.976	1.999	73.998	39.000	0.250	13.612	0.000	2.809	2.279	63.999	64.000	18.000	-0.622	-0.195	-0.779	65.295	-19.571	169.641	0.640	0.140	44.680847528040	10.024205671317	169.64	
		15.300	151.68	4.191	13.571	-0.173	-0.795	-1.025	5.532	-3.356	-23.806	7594.044	584.976	1.999	73.998	39.000	0.251	13.892	0.000	2.815	2.279	63.999	63.400	18.000	-0.695	-0.181	-0.768	63.392	-22.024	169.614	0.650	0.140	44.680854623911	10.024225517593	169.62	
		15.400	153.42	4.191	13.567	-0.132	-0.764	-0.998	4.176	-1.953	-27.777	7616.823	681.981	3.999	73.998	39.000	0.370	13.896	0.000	3.000	2.260	63.999	62.700	18.000	-0.753	-0.190	-0.750	61.273	-24.109	169.595	0.650	0.150	44.680862222634	10.024244720330	169.60	
		15.500	155.14	4.191	13.564	-0.261	-0.922	-1.044	4.039	-0.582	-27.298	7531.092	722.551	5.000	73.998	39.000	0.468	13.792	0.000	3.410	2.250	63.999	62.000	18.000	-0.782	-0.185	-0.739	58.935	-25.324	169.580	0.650	0.150	44.680870329789	10.024263216228	169.58	
		15.600	156.84	4.191	13.561	-0.227	-0.676	-0.853	2.618	-3.169	-24.692	7415.542	761.508	5.040	73.998	39.000	0.433	13.584	0.000	3.707	2.238	63.999	61.300	18.000	-0.792	-0.156	-0.739	56.402	-25.966	169.563	0.650	0.150	44.680878959559	10.024280998094	169.57	
		15.700	158.54	4.191	13.558	-0.190	-0.753	-1.046	5.490	-3.361	-25.721	7345.962	857.951	6.999	73.998	39.000	0.570	13.800	0.000	4.008	2.228	63.999	61.000	18.000	-0.802	-0.124	-0.682	53.744	-26.516	169.537	0.660	0.160	44.680888104683	10.024298077272	169.54	
		15.800	160.22	4.192	13.554	-0.035	-0.756	-0.978	3.240	3.481	-30.062	7663.417	1212.839	14.079	73.998	39.000	0.791	13.604	0.000	8.433	2.189	63.999	60.500	18.000	-0.836	-0.092	-0.636	50.959	-27.937	169.514	0.660	0.170	44.680897757084	10.024314424323	169.52	
		15.900	161.89	4.192	13.551	-0.137	-0.847	-1.182	8.729	-0.387	-29.838	7424.446	1306.755	16.040	73.998	39.000	0.830	13.684	0.000	8.888	2.170	63.999	60.200	18.000	-0.881	-0.006	-0.670	48.060	-29.633	169.496	0.660	0.180	44.680907981335	10.024330052133	169.50	
		16.000	163.57	4.192	13.548	-0.027	-1.388	-1.188	10.374	-3.694	-36.630	7410.986	1364.944	16.999	73.998	39.000	0.930	13.296	0.000	9.234	2.170	63.999	60.500	18.000	-0.904	0.115	-0.768	45.046	-30.206	169.477	0.670	0.180	44.680918888476	10.024345039178	169.48	
		16.100	165.27	4.192	13.548	0.294	-1.457	-0.857	4.863	-3.230	-41.855	7732.996	1408.673	18.079	73.998	39.000	0.919	13.692	0.000	9.284	2.169	63.999	61.200	18.000	-0.906	0.156	-0.802	41.941	-29.655	169.455	0.680	0.180	44.680930485300	10.024359385650	169.46	
		16.200	166.99	4.192	13.548	-0.172	-1.101	-0.974	6.401	-3.293	-42.472	7526.329	1526.384	20.120	73.998	39.000	0.890	13.608	0.000	9.751	2.139	63.999	61.700	18.000	-0.939	0.089	-0.808	38.767	-30.366	169.446	0.680	0.180	44.680942660722	10.024372924620	169.45	
		16.300	168.70	4.192	13.548	-0.014	-0.848	-1.032	0.834	-2.837	-45.315	7760.951	2027.973	30.999	73.998	39.000	0.930	13.600	0.000	11.758	2.119	63.999	61.750	18.000	-1.013	0.039	-0.808	35.570	-32.910	169.431	0.680	0.180	44.680955355122	10.024385488908	169.43	
		16.400	170.42	4.192	13.547	0.404	-0.808	-1.005	-1.111	-2.467	-44.150	8046.722	2190.186	34.119	73.998	39.000	0.940	13.400	0.000	12.384	2.119	63.999	61.800	18.000	-1.085	0.081	-0.808	32.384	-35.385	169.394	0.680	0.170	44.680968638397	10.024397044178	169.40	
		16.500	172.15	4.192	13.547	0.285	-1.068	-1.056	0.491	-2.899	-40.441	8211.558	2341.518	37.039	73.998	39.000	0.951	13.416	0.000	12.794	2.119	63.999	62.300	18.000	-1.112	0.150	-0.790	29.210	-36.233	169.347	0.680	0.170	44.680982571750	10.024407576678	169.35	
		16.600	173.90	4.192	13.547	0.353	-1.029	-0.980	1.258	-1.123	-39.144	8252.974	2377.948	37.999	73.998	39.000	0.950	13.200	0.000	12.945	2.119	63.999	63.000	18.000	-1.063	0.189	-0.756	26.059	-34.285	169.324	0.680	0.170	44.680997088487	10.024417045949	169.33	
		16.700	175.67	4.192	13.547	0.322	-0.678	-1.066	3.676	-2.386	-24.324	8347.402	2377.948	37.999	73.998	39.000	0.940	13.604	0.000	12.937	2.119	63.999	63.600	18.000	-0.959	0.212	-0.739	22.987	-30.389	169.299	0.680	0.170	44.681012065008	10.024425484142	169.30	
		16.800	177.45	4.192	13.547	0.304	-0.852	-1.011	7.766	-2.066	-1.277	8280.930	2377.948	37.999	73.998	39.000	0.942	13.700	0.000	12.929	2.119	63.999	64.400	18.000	-0.885	0.260	-0.762	20.100	-27.272	169.271	0.680	0.190	44.681027460338	10.024432998083	169.27	
		16.900	179.27	4.192	13.547	0.248	-1.239	-1.012	3.995	-1.625	-0.751	8154.818	2377.948	37.999	73.998	39.000	0.980	13.792	0.000	12.919	2.119	63.999	65.400	18.000	-0.930	0.312	-0.756	17.521	-28.395	169.250	0.680	0.190	44.681043337009	10.024439553747	169.25	
		17.000	181.12	4.192	13.547	0.088	-0.792	-0.961	3.073	-2.561	-21.803	8058.939	2183.938	34.000	73.998	39.000	0.950	13.600	0.000	12.312	2.119	63.999	66.600	18.000	-0.971	0.275	-0.710	15.356	-29.197	169.236	0.680	0.180	44.681059704582	10.024445014364	169.24	
		17.100	183.00	4.192	13.547	-0.155	-0.645	-0.969	3.387	-0.747	-25.004	8080.476	1018.198	10.679	73.998	39.000	0.832	13.504	0.000	7.914	2.211	63.999	67.500	18.000	-0.861	0.119	-0.676	13.648	-25.576	169.223	0.690	0.170	44.681076385256	10.024449371810	169.23	
		17.200	184.87	4.192	13.547	-0.394	-0.300	-1.009	1.574	-0.951	-16.008	7731.753	662.187	2.999	73.998	39.000	0.398	13.676	0.000	3.222	2.260	63.999	67.400	18.000	-0.600	-0.058	-0.670	12.422	-17.761	169.208	0.690	0.170	44.681093096291	10.024452895428	169.21	
		17.300	186.73	4.193	13.547	-0.189	0.258	-1.009	0.951	-2.808	-4.140	7906.943	720.937	3.999	73.998	39.000	0.420	13.696	0.000	3.270	2.260	63.999	66.900	18.000	-0.268	-0.138	-0.630	11.643	-8.044	169.189	0.690	0.170	44.681109663038	10.024456015364	169.19	
		17.400	188.57	4.193	13.546	-0.101	0.442	-1.015	2.764	-1.720	6.405	7882.921	780.740	6.000	73.998	39.000	0.529	13.792	0.000	3.831	2.238	63.999	66.500	18.000	0.075	-0.135	-0.584	11.322	2.476	169.166	0.690	0.170	44.681126058353	10.024459192593	169.17	
		17.500	190.41	4.193	13.546	-0.195	0.523	-1.042	4.036	-2.138	8.695	7862.213	805.237	6.120	73.998	39.000	0.526	13.600	0.000	4.025	2.238	63.999	66.100	18.000	0.338	-0.106	-0.510	11.482	10.589	169.133	0.690	0.160	44.681142296363	10.024462768439	169.14	
		17.600	192.23	4.193	13.546	-0.031	0.609	-0.964	3.099	-2.605	10.224	8181.945	1364.944	16.999	73.998	39.000	0.850	13.696	0.000	9.047	2.170	63.999	65.700	18.000	0.492	-0.048	-0.464	12.170	15.402	169.108	0.690	0.150	44.681158409720	10.024466930691	169.11	
		17.700	194.06	4.194	13.546	0.049	0.663	-1.010	3.278	-0.520	12.747	8059.354	1445.313	19.039	73.998	39.000	0.870	13.696	0.000	9.325	2.157	63.999	65.850	18.000	0.576	0.037	-0.418	13.385	17.831	169.088	0.690	0.160	44.681174473722	10.024471791649	169.09	
		17.800	195.90	4.194	13.546	0.043	0.807	-1.081	3.989	-0.739	14.283	7929.515	1502.519	20.040	73.998	39.000	0.869	13.696	0.000	9.623	2.139	63.999	66.000	18.000	0.657	0.099	-0.355	15.092	20.146	169.073	0.690	0.170	44.681190529516	10.024477482959	169.08	
		17.900	197.74	4.194	13.546	0.218	0.896	-1.059	4.149	-0.805	16.448	8087.931	1617.984	22.999	73.998	39.000	0.890	13.800	0.000	10.016	2.139	63.999	66.400	18.000	0.751	0.106	-0.263	17.201	22.873	169.064	0.700	0.170	44.681206525127	10.024484121405	169.07	
		18.000	199.60	4.194	13.545	0.155	0.978	-1.048	4.992	-0.514	19.629	8149.227	1744.329	25.200	73.998	39.000	0.951	13.496	0.000	10.611	2.128	63.999	66.800	18.000	0.848	0.094	-0.120	19.630	25.646	169.071	0.700	0.170	44.681222379761	10.024491780813	169.07	
		18.100	201.46	4.194	13.543	0.268	1.127	-1.105	4.591	-0.447	22.074	8254.838	1981.436	30.240	73.998	39.000	0.969	13.480	0.000	11.808	2.119	63.999	67.100	18.000	0.927	0.108	0.069	22.300	27.915	169.076	0.700	0.170	44.681238041787	10.024500527202	169.08	
		18.200	203.34	4.195	13.541	0.281	1.166	-1.128	3.790	-0.783	23.279	8374.944	2513.979	40.000	73.998	39.000	0.960	13.000	0.000	13.195	2.119	63.999	67.500	18.000	0.997	0.159	0.258	25.176	29.772	169.078	0.700	0.170	44.681253482014	10.024510453856	169.08	
		18.300	205.23	4.195	13.539	0.327	1.081	-1.069	5.937	-0.331	25.372	8459.640	2729.467	44.399	73.998	38.000	0.980	13.872	0.000	13.544	2.098	63.999	68.200	18.000	1.065	0.216	0.464	28.213	31.376	169.082	0.700	0.170	44.681268668002	10.024521669740	169.08	
		18.400	207.15	4.195	13.537	0.243	1.164	-1.059	6.879	-0.911	26.166	8553.033	3224.457	54.519	73.998	38.039	0.971	13.308	0.000	14.263	2.047	63.999	69.100	18.000	1.150	0.239	0.671	31.341	33.416	169.093	0.710	0.170	44.681283544958	10.024534275272	169.10	
		18.500	209.09	4.195	13.534	0.344	1.216	-1.064	5.858	-1.473	26.411	8718.904	4227.985	74.999	73.998	38.000	0.970	13.600	0.000	15.203	1.979	63.999	69.900	18.000	1.242	0.218	0.814	34.538	35.685	169.117	0.710	0.170	44.681298008973	10.024548330488	169.12	
		18.600	211.06	4.195	13.532	0.184	1.402	-1.246	3.863	2.913	31.601	8819.959	4541.531	81.039	73.998	38.000	0.989	13.508	0.000	15.266	1.980	63.999	70.700	18.000	1.291	0.196	0.905	37.781	36.899	169.151	0.710	0.170	44.681311932064	10.024563836628	169.15	
		18.700	213.04	4.195	13.530	0.433	1.056	-1.012	3.627	2.234	27.662	8943.172	4579.996	82.000	73.998	38.000	0.970	13.800	0.000	15.273	1.989	63.999	71.300	18.000	1.249	0.222	1.049	41.047	35.318	169.194	0.710	0.160	44.681325255692	10.024580713604	169.20	
		18.800	215.04	4.196	13.528	0.318	1.010	-1.056	2.413	-5.338	17.231	8994.528	4579.996	82.000	73.998	38.000	0.971	13.780	0.000	15.272	1.989	63.999	72.100	18.000	1.154	0.282	1.226	45.505	32.086	169.250	0.710	0.150	44.681338030680	10.024598850203	169.25	
		18.900	217.07	4.196	13.526	0.352	0.860	-0.837	5.062	-5.004	17.455	9130.994	4579.996	82.000	73.998	38.000	0.980	13.600	0.000	15.312	2.000	63.999	73.300	18.000	1.090	0.314	1.301	48.839	29.680	169.309	0.710	0.150	44.681350326279	10.024618158810	169.31	
		19.000	219.14	4.196	13.523	0.278	1.196	-1.107	7.547	0.187	25.387	9139.484	4579.996	82.000	73.998	38.000	0.961	13.032	0.000	15.280	2.000	63.999	74.400	18.000	1.115	0.287	1.398	52.151	29.932	169.361	0.710	0.150	44.681362097750	10.024638608490	169.36	
		19.100	221.23	4.196	13.522	0.123	1.262	-1.144	4.736	0.493	24.748	9325.856	4579.996	82.000	73.998	38.000	0.979	13.796	0.000	15.425	2.000	63.999	75.300	18.000	1.194	0.242	1.456	55.440	31.766	169.403	0.710	0.150	44.681373190847	10.024660164911	169.41	
		19.200	223.35	4.196	13.520	0.169	1.111	-1.093	4.829	1.056	25.084	9429.811	4579.996	82.000	73.998	38.000	0.950	13.600	0.000	15.367	2.000	63.999	76.100	18.000	1.266	0.236	1.478	58.648	33.416	169.463	0.710	0.150	44.681383455621	10.024682783167	169.47	
		19.300	225.49	4.196	13.518	0.388	1.243	-1.044	2.880	-0.699	24.924	9543.497	4579.996	82.000	73.998	38.000	0.961	13.676	0.000	15.369	2.000	63.999	77.000	18.000	1.300	0.261	1.438	61.811	33.920	169.514	0.710	0.150	44.681392823744	10.024706437659	169.52	
		19.400	227.65	4.196	13.517	0.238	1.379	-1.119	3.686	-1.656	25.060	9678.514	4579.996	82.000	73.998	38.000	0.980	13.216	0.000	15.594	2.000	63.999	78.000	18.000	1.312	0.277	1.352	64.939	33.828	169.560	0.710	0.150	44.681401273724	10.024731142233	169.56	
		19.500	229.85	4.196	13.515	0.281	1.212	-0.992	3.483	-0.587	25.545	9934.879	4579.996	82.000	73.998	38.000	0.940	13.800	0.000	16.015	2.000	63.999	79.000	18.000	1.298	0.284	1.284	68.033	33.072	169.610	0.710	0.150	44.681408787341	10.024756868838	169.61	
		19.600	232.07	4.196	13.513	0.309	1.205	-1.021	4.006	-1.248	21.721	9869.855	4579.996	82.000	73.998	38.000	0.942	13.700	0.000	15.823	2.000	63.999	79.900	18.000	1.255	0.288	1.232	71.059	31.605	169.680	0.710	0.150	44.681415342851	10.024783514034	169.68	
		19.700	234.32	4.196	13.512	0.286	1.212	-1.070	2.142	-1.744	17.121	9989.341	4579.996	82.000	73.998	38.000	0.980	13.780	0.000	16.080	2.000	63.999	81.000	18.000	1.200	0.287	1.117	73.992	29.772	169.741	0.710	0.140	44.681420934589	10.024810921129	169.74	
		19.800	236.59	4.196	13.510	0.313	0.993	-0.971	4.229	-0.945	18.578	10118.974	4579.996	82.000	73.998	38.000	0.940	13.200	0.000	16.156	1.989	63.999	82.000	18.000	1.159	0.284	1.009	76.823	28.511	169.794	0.700	0.140	44.681425566327	10.024838952522	169.80	
		19.900	238.90	4.196	13.508	0.208	0.962	-1.020	2.133	-3.019	17.312	10171.571	4579.996	82.000	73.998	38.000	0.970	13.500	0.000	16.174	1.989	63.999	83.000	18.000	1.110	0.300	0.911	79.515	27.022	169.832	0.700	0.140	44.681429267495	10.024867556608	169.84	
		20.000	241.24	4.196	13.506	0.396	0.984	-0.956	-0.305	-2.662	15.776	10286.501	4579.996	82.000	73.998	38.000	0.980	13.596	0.000	16.222	1.979	63.999	84.100	18.000	1.048	0.326	0.820	82.014	25.165	169.863	0.700	0.140	44.681432093520	10.024896783832	169.87	
		20.100	243.61	4.196	13.497	0.241	0.945	-0.989	0.152	-2.723	16.059	10453.822	4579.996	82.000	73.998	38.000	0.970	13.296	0.000	16.297	1.960	63.999	85.300	18.000	1.003	0.331	0.676	84.202	23.698	169.893	0.700	0.140	44.681434087504	10.024926659065	169.90	
		20.200	246.01	4.196	13.488	0.266	0.986	-1.016	-0.806	-2.369	15.520	10607.683	4579.996	82.000	73.998	38.000	0.950	13.124	0.000	16.262	1.949	63.999	86.400	18.000	1.000	0.317	0.533	86.024	23.446	169.918	0.700	0.140	44.681435225171	10.024957062608	169.92	
		20.300	248.44	4.196	13.479	0.392	0.881	-0.963	1.334	-2.791	12.846	10700.661	4579.996	82.000	73.998	38.000	0.960	13.776	0.000	16.183	1.949	63.999	87.500	18.000	0.964	0.321	0.401	87.411	22.461	169.933	0.700	0.140	44.681435481232	10.024987833998	169.94	
		20.400	250.90	4.196	13.470	0.409	0.613	-0.951	3.544	-4.299	8.149	10786.807	4579.996	82.000	73.998	38.000	0.980	13.600	0.000	16.109	1.949	63.999	88.700	18.000	0.800	0.336	0.298	88.351	18.519	169.941	0.700	0.140	44.681434957613	10.025018952741	169.95	
		20.500	253.40	4.196	13.461	0.389	-0.026	-0.858	5.343	-4.318	-1.951	10917.268	4506.716	80.520	73.998	38.000	0.949	13.612	0.000	15.905	1.957	63.999	89.900	18.000	0.460	0.321	0.189	88.855	10.474	169.955	0.700	0.130	44.681433972056	10.025050515464	169.96	
		20.600	255.92	4.196	13.451	0.007	-0.728	-0.846	4.526	-2.324	-16.949	10934.248	2717.604	44.399	73.998	38.000	0.941	13.884	0.000	13.494	2.139	63.999	90.900	18.000	0.013	0.238	0.063	88.981	0.276	169.971	0.700	0.120	44.681432972126	10.025082503466	169.98	
		20.700	258.47	4.196	13.442	-0.583	-1.041	-0.954	3.621	-4.611	-21.671	10227.897	915.999	7.999	73.998	38.000	0.690	11.496	0.000	8.062	2.209	63.999	91.600	18.000	-0.414	0.117	-0.080	88.752	-9.281	169.979	0.700	0.120	44.681432371290	10.025114719998	169.98	
		20.800	261.01	4.196	13.433	0.553	-0.793	-0.955	4.960	-3.201	-22.542	8328.351	1489.253	20.080	73.998	38.000	0.787	11.156	0.000	10.028	2.191	63.999	91.700	18.000	-0.717	0.031	-0.218	88.202	-16.019	169.977	0.700	0.130	44.681432438907	10.025146961434	169.98	
		20.900	263.56	4.196	13.424	0.101	-1.019	-0.981	1.803	-3.864	-20.393	9539.355	4038.538	70.480	73.998	38.000	0.971	12.616	0.000	15.765	2.000	63.999	91.800	18.000	-0.853	0.052	-0.366	87.388	-19.090	169.971	0.700	0.140	44.681433309542	10.025179204013	169.98	
		21.000	266.12	4.196	13.415	0.292	-0.752	-0.984	2.576	-3.096	-17.295	8994.942	4579.996	82.000	73.998	38.000	0.980	13.096	0.000	15.539	2.000	63.999	92.100	18.000	-0.839	0.147	-0.504	86.414	-18.678	169.963	0.700	0.140	44.681434985280	10.025211531419	169.97	
		21.100	268.70	4.196	13.417	0.361	-0.517	-0.957	1.732	-2.335	-15.591	9020.413	4579.996	82.000	73.998	37.960	0.980	13.208	0.000	15.507	2.000	63.999	92.900	18.000	-0.737	0.236	-0.624	85.440	-16.225	169.938	0.700	0.140	44.681437357348	10.025244032919	169.94	
		21.200	271.31	4.196	13.420	0.315	-0.473	-0.992	2.425	-2.430	-12.627	9082.123	4579.996	82.000	73.998	36.999	0.980	13.396	0.000	15.500	2.000	63.999	93.800	18.000	-0.616	0.277	-0.745	84.592	-13.383	169.904	0.700	0.140	44.681440278139	10.025276778590	169.91	
		21.300	273.94	4.196	13.423	0.283	-0.336	-0.997	2.116	-3.240	-10.333	9225.836	4579.996	82.000	73.998	36.999	0.950	13.400	0.000	15.484	2.000	63.999	94.800	18.000	-0.481	0.291	-0.848	83.927	-10.450	169.857	0.700	0.140	44.681443624404	10.025309835583	169.86	
		21.400	276.60	4.196	13.426	0.331	0.065	-0.986	0.137	-2.174	-4.528	9318.815	4579.996	82.000	73.998	36.999	0.980	13.496	0.000	15.484	2.000	63.999	95.800	18.000	-0.264	0.282	-0.888	83.457	-5.775	169.800	0.700	0.130	44.681447249170	10.025343221349	169.81	
		21.500	279.29	4.196	13.428	0.315	0.512	-0.994	-0.304	-2.376	5.775	9360.231	4579.996	82.000	73.998	36.999	0.960	13.596	0.000	15.439	2.000	63.999	96.800	18.000	0.053	0.268	-0.882	83.148	1.078	169.741	0.700	0.120	44.681450894684	10.025376939433	169.75	
		21.600	282.01	4.196	13.431	0.111	0.506	-0.992	1.846	-2.130	7.770	9417.800	4579.996	82.000	73.998	36.999	0.950	13.496	0.000	15.470	2.000	63.999	97.700	18.000	0.356	0.264	-0.876	82.953	7.656	169.695	0.700	0.120	44.681454233282	10.025411014278	169.70	
		21.700	284.75	4.196	13.434	0.242	0.403	-0.960	2.944	-2.545	1.825	9603.965	4579.996	82.000	73.998	36.999	0.970	13.800	0.000	15.586	2.000	63.999	98.700	18.000	0.470	0.275	-0.917	82.839	10.039	169.647	0.700	0.120	44.681457091739	10.025445476509	169.65	
		21.800	287.52	4.196	13.436	0.190	0.111	-0.980	3.519	-1.582	-1.740	9651.179	4579.996	82.000	73.998	36.999	0.988	13.504	0.000	15.737	2.000	63.999	99.700	18.000	0.334	0.275	-0.917	82.816	6.991	169.594	0.700	0.120	44.681459604048	10.025480311193	169.60	
		21.900	290.31	4.196	13.439	0.284	-0.252	-1.143	5.154	-1.900	-10.258	9708.540	4579.996	82.000	73.998	36.999	0.951	13.692	0.000	15.816	2.000	63.999	100.600	18.000	0.064	0.260	-0.894	82.907	1.261	169.548	0.700	0.130	44.681462072956	10.025515481576	169.55	
		22.000	293.13	4.196	13.442	0.280	-0.291	-1.061	5.070	-1.110	-10.567	9877.932	4579.996	82.000	73.998	36.999	0.990	13.496	0.000	16.078	2.000	63.999	101.500	17.000	-0.175	0.247	-1.037	83.091	-3.666	169.531	0.700	0.140	44.681464750606	10.025550952978	169.54	
		22.100	295.97	4.196	13.449	0.242	-0.241	-1.025	3.506	-1.135	-10.214	9930.530	4579.153	82.000	73.998	36.999	0.979	13.508	0.000	16.119	2.000	63.999	102.400	17.000	-0.282	0.254	-1.100	83.297	-5.820	169.516	0.700	0.140	44.681467766253	10.025586727460	169.52	
		22.200	298.84	4.196	13.457	0.209	-0.054	-1.045	1.814	-1.780	-5.603	9995.554	4559.991	82.000	73.998	36.999	0.961	13.796	0.000	16.355	2.000	63.999	103.300	17.000	-0.230	0.278	-1.043	83.480	-4.720	169.468	0.700	0.140	44.681471115008	10.025622841802	169.47	
		22.300	301.74	4.197	13.464	0.279	0.182	-0.926	2.129	-2.253	0.963	10135.954	4579.996	82.000	73.998	36.999	0.970	13.696	0.000	16.281	1.989	63.999	104.300	17.000	-0.050	0.304	-0.934	83.629	-1.008	169.420	0.700	0.130	44.681474610901	10.025659338995	169.43	
		22.400	304.67	4.197	13.472	0.192	0.338	-0.927	0.878	-4.177	1.779	10205.326	4579.996	82.000	73.998	36.999	0.980	13.600	0.000	16.298	1.979	63.999	105.500	17.000	0.150	0.310	-0.980	83.778	2.980	169.382	0.690	0.120	44.681477971040	10.025696199488	169.39	
		22.500	307.63	4.197	13.479	0.292	0.442	-1.004	0.930	-2.520	1.219	10288.158	4579.996	82.000	73.998	36.999	0.989	13.596	0.000	16.327	1.979	63.999	106.600	17.000	0.279	0.288	-1.054	83.950	5.410	169.269	0.690	0.120	44.681481004639	10.025733362627	169.28	
		22.600	310.62	4.197	13.487	0.186	0.297	-1.105	3.424	1.763	0.618	10424.831	4579.996	82.000	73.998	36.999	0.970	13.696	0.000	16.328	1.960	63.999	107.500	17.000	0.320	0.258	-1.140	84.191	6.097	169.145	0.690	0.130	44.681483699114	10.025770808247	169.15	
		22.700	313.63	4.198	13.494	0.240	0.335	-1.052	4.389	-2.823	0.032	10468.731	4579.996	82.000	73.998	36.999	0.979	13.604	0.000	16.310	1.960	63.999	108.300	17.000	0.310	0.254	-1.060	84.512	5.822	169.098	0.690	0.140	44.681486140381	10.025808606650	169.11	
		22.800	316.66	4.198	13.502	0.361	0.275	-0.978	3.914	-0.798	-0.380	10564.817	4579.996	82.000	73.998	36.999	0.951	13.696	0.000	16.266	1.949	63.999	109.300	17.000	0.276	0.273	-0.957	84.878	5.135	169.109	0.690	0.140	44.681488408541	10.025846836603	169.12	
		22.900	319.73	4.198	13.509	0.316	0.144	-1.024	3.302	-1.108	-1.021	10682.853	4579.996	82.000	73.998	36.999	0.950	13.600	0.000	16.172	1.949	63.999	110.300	17.000	0.224	0.281	-0.911	85.268	4.126	169.057	0.690	0.140	44.681490544901	10.025885495749	169.06	
		23.000	322.82	4.198	13.516	0.201	0.197	-1.008	1.227	-3.012	-2.133	10744.355	4579.996	82.000	73.998	36.999	0.989	13.596	0.000	16.182	1.949	63.999	111.300	17.000	0.172	0.264	-0.796	85.646	3.095	169.000	0.690	0.140	44.681492570548	10.025924507135	169.01	
		23.100	325.94	4.198	13.456	0.244	0.166	-1.082	1.756	0.107	-2.642	10831.329	4579.996	82.000	73.998	36.999	0.970	13.500	0.000	16.047	1.949	63.999	112.200	17.000	0.141	0.250	-0.659	85.990	2.522	168.913	0.690	0.140	44.681494493743	10.025963809138	168.92	
		23.200	329.07	4.199	13.396	0.246	0.194	-1.013	3.676	-2.123	-2.091	10959.926	4579.996	82.000	73.998	36.999	0.960	13.096	0.000	15.945	1.949	63.999	113.000	17.000	0.136	0.254	-0.659	86.311	2.430	168.877	0.690	0.130	44.681496315008	10.026003404492	168.88	
		23.300	332.24	4.199	13.335	0.340	0.218	-0.886	3.958	-3.983	-1.735	11023.499	4579.996	82.000	73.998	36.999	1.000	13.412	0.000	15.896	1.949	63.999	114.000	17.000	0.138	0.268	-0.745	86.586	2.453	168.883	0.690	0.130	44.681498038087	10.026043335653	168.89	
		23.400	335.43	4.199	13.275	0.214	0.196	-0.903	2.306	-2.659	-1.784	11086.866	4579.996	82.000	73.998	36.999	0.997	13.684	0.000	15.842	1.949	63.999	114.900	17.000	0.136	0.269	-0.722	86.849	2.407	168.893	0.690	0.140	44.681499665795	10.026083625342	168.90	
